[
  {
    "displayName": "East US",
    "latitude": "37.3719",
    "longitude": "-79.8164",
    "name": "eastus"
  },
  {
    "displayName": "East US 2",
    "latitude": "36.6681",
    "longitude": "-78.3889",
    "name": "eastus2"
  },
  {
    "displayName": "South Central US",
    "latitude": "29.4167",
    "longitude": "-98.5",
    "name": "southcentralus"
  },
  {
    "displayName": "West US 2",
    "latitude": "47.233",
    "longitude": "-119.852",
    "name": "westus2"
  },
  {
    "displayName": "West US 3",
    "latitude": "33.448376",
    "longitude": "-112.074036",
    "name": "westus3"
  },
  {
    "displayName": "Australia East",
    "latitude": "-33.86",
    "longitude": "151.2094",
    "name": "australiaeast"
  },
  {
    "displayName": "Southeast Asia",
    "latitude": "1.283",
    "longitude": "103.833",
    "name": "southeastasia"
  },
  {
    "displayName": "North Europe",
    "latitude": "53.3478",
    "longitude": "-6.2597",
    "name": "northeurope"
  },
  {
    "displayName": "Sweden Central",
    "latitude": "60.67488",
    "longitude": "17.14127",
    "name": "swedencentral"
  },
  {
    "displayName": "UK South",
    "latitude": "50.941",
    "longitude": "-0.799",
    "name": "uksouth"
  },
  {
    "displayName": "West Europe",
    "latitude": "52.3667",
    "longitude": "4.9",
    "name": "westeurope"
  },
  {
    "displayName": "Central US",
    "latitude": "41.5908",
    "longitude": "-93.6208",
    "name": "centralus"
  },
  {
    "displayName": "South Africa North",
    "latitude": "-25.731340",
    "longitude": "28.218370",
    "name": "southafricanorth"
  },
  {
    "displayName": "Central India",
    "latitude": "18.5822",
    "longitude": "73.9197",
    "name": "centralindia"
  },
  {
    "displayName": "East Asia",
    "latitude": "22.267",
    "longitude": "114.188",
    "name": "eastasia"
  },
  {
    "displayName": "Japan East",
    "latitude": "35.68",
    "longitude": "139.77",
    "name": "japaneast"
  },
  {
    "displayName": "Korea Central",
    "latitude": "37.5665",
    "longitude": "126.9780",
    "name": "koreacentral"
  },
  {
    "displayName": "Canada Central",
    "latitude": "43.653",
    "longitude": "-79.383",
    "name": "canadacentral"
  },
  {
    "displayName": "France Central",
    "latitude": "46.3772",
    "longitude": "2.3730",
    "name": "francecentral"
  },
  {
    "displayName": "Germany West Central",
    "latitude": "50.110924",
    "longitude": "8.682127",
    "name": "germanywestcentral"
  },
  {
    "displayName": "Norway East",
    "latitude": "59.913868",
    "longitude": "10.752245",
    "name": "norwayeast"
  },
  {
    "displayName": "Switzerland North",
    "latitude": "47.451542",
    "longitude": "8.564572",
    "name": "switzerlandnorth"
  },
  {
    "displayName": "UAE North",
    "latitude": "25.266666",
    "longitude": "55.316666",
    "name": "uaenorth"
  },
  {
    "displayName": "Brazil South",
    "latitude": "-23.55",
    "longitude": "-46.633",
    "name": "brazilsouth"
  },
  {
    "displayName": "East US 2 EUAP",
    "latitude": "36.6681",
    "longitude": "-78.3889",
    "name": "eastus2euap"
  },
  {
    "displayName": "Qatar Central",
    "latitude": "25.551462",
    "longitude": "51.439327",
    "name": "qatarcentral"
  },
  {
    "displayName": "Central US (Stage)",
    "latitude": null,
    "longitude": null,
    "name": "centralusstage"
  },
  {
    "displayName": "East US (Stage)",
    "latitude": null,
    "longitude": null,
    "name": "eastusstage"
  },
  {
    "displayName": "East US 2 (Stage)",
    "latitude": null,
    "longitude": null,
    "name": "eastus2stage"
  },
  {
    "displayName": "North Central US (Stage)",
    "latitude": null,
    "longitude": null,
    "name": "northcentralusstage"
  },
  {
    "displayName": "South Central US (Stage)",
    "latitude": null,
    "longitude": null,
    "name": "southcentralusstage"
  },
  {
    "displayName": "West US (Stage)",
    "latitude": null,
    "longitude": null,
    "name": "westusstage"
  },
  {
    "displayName": "West US 2 (Stage)",
    "latitude": null,
    "longitude": null,
    "name": "westus2stage"
  },
  {
    "displayName": "Asia",
    "latitude": null,
    "longitude": null,
    "name": "asia"
  },
  {
    "displayName": "Asia Pacific",
    "latitude": null,
    "longitude": null,
    "name": "asiapacific"
  },
  {
    "displayName": "Australia",
    "latitude": null,
    "longitude": null,
    "name": "australia"
  },
  {
    "displayName": "Brazil",
    "latitude": null,
    "longitude": null,
    "name": "brazil"
  },
  {
    "displayName": "Canada",
    "latitude": null,
    "longitude": null,
    "name": "canada"
  },
  {
    "displayName": "Europe",
    "latitude": null,
    "longitude": null,
    "name": "europe"
  },
  {
    "displayName": "France",
    "latitude": null,
    "longitude": null,
    "name": "france"
  },
  {
    "displayName": "Germany",
    "latitude": null,
    "longitude": null,
    "name": "germany"
  },
  {
    "displayName": "Global",
    "latitude": null,
    "longitude": null,
    "name": "global"
  },
  {
    "displayName": "India",
    "latitude": null,
    "longitude": null,
    "name": "india"
  },
  {
    "displayName": "Japan",
    "latitude": null,
    "longitude": null,
    "name": "japan"
  },
  {
    "displayName": "Korea",
    "latitude": null,
    "longitude": null,
    "name": "korea"
  },
  {
    "displayName": "Norway",
    "latitude": null,
    "longitude": null,
    "name": "norway"
  },
  {
    "displayName": "Singapore",
    "latitude": null,
    "longitude": null,
    "name": "singapore"
  },
  {
    "displayName": "South Africa",
    "latitude": null,
    "longitude": null,
    "name": "southafrica"
  },
  {
    "displayName": "Switzerland",
    "latitude": null,
    "longitude": null,
    "name": "switzerland"
  },
  {
    "displayName": "United Arab Emirates",
    "latitude": null,
    "longitude": null,
    "name": "uae"
  },
  {
    "displayName": "United Kingdom",
    "latitude": null,
    "longitude": null,
    "name": "uk"
  },
  {
    "displayName": "United States",
    "latitude": null,
    "longitude": null,
    "name": "unitedstates"
  },
  {
    "displayName": "United States EUAP",
    "latitude": null,
    "longitude": null,
    "name": "unitedstateseuap"
  },
  {
    "displayName": "East Asia (Stage)",
    "latitude": null,
    "longitude": null,
    "name": "eastasiastage"
  },
  {
    "displayName": "Southeast Asia (Stage)",
    "latitude": null,
    "longitude": null,
    "name": "southeastasiastage"
  },
  {
    "displayName": "North Central US",
    "latitude": "41.8819",
    "longitude": "-87.6278",
    "name": "northcentralus"
  },
  {
    "displayName": "West US",
    "latitude": "37.783",
    "longitude": "-122.417",
    "name": "westus"
  },
  {
    "displayName": "Jio India West",
    "latitude": "22.470701",
    "longitude": "70.05773",
    "name": "jioindiawest"
  },
  {
    "displayName": "Central US EUAP",
    "latitude": "41.5908",
    "longitude": "-93.6208",
    "name": "centraluseuap"
  },
  {
    "displayName": "West Central US",
    "latitude": "40.890",
    "longitude": "-110.234",
    "name": "westcentralus"
  },
  {
    "displayName": "South Africa West",
    "latitude": "-34.075691",
    "longitude": "18.843266",
    "name": "southafricawest"
  },
  {
    "displayName": "Australia Central",
    "latitude": "-35.3075",
    "longitude": "149.1244",
    "name": "australiacentral"
  },
  {
    "displayName": "Australia Central 2",
    "latitude": "-35.3075",
    "longitude": "149.1244",
    "name": "australiacentral2"
  },
  {
    "displayName": "Australia Southeast",
    "latitude": "-37.8136",
    "longitude": "144.9631",
    "name": "australiasoutheast"
  },
  {
    "displayName": "Japan West",
    "latitude": "34.6939",
    "longitude": "135.5022",
    "name": "japanwest"
  },
  {
    "displayName": "Jio India Central",
    "latitude": "21.146633",
    "longitude": "79.08886",
    "name": "jioindiacentral"
  },
  {
    "displayName": "Korea South",
    "latitude": "35.1796",
    "longitude": "129.0756",
    "name": "koreasouth"
  },
  {
    "displayName": "South India",
    "latitude": "12.9822",
    "longitude": "80.1636",
    "name": "southindia"
  },
  {
    "displayName": "West India",
    "latitude": "19.088",
    "longitude": "72.868",
    "name": "westindia"
  },
  {
    "displayName": "Canada East",
    "latitude": "46.817",
    "longitude": "-71.217",
    "name": "canadaeast"
  },
  {
    "displayName": "France South",
    "latitude": "43.8345",
    "longitude": "2.1972",
    "name": "francesouth"
  },
  {
    "displayName": "Germany North",
    "latitude": "53.073635",
    "longitude": "8.806422",
    "name": "germanynorth"
  },
  {
    "displayName": "Norway West",
    "latitude": "58.969975",
    "longitude": "5.733107",
    "name": "norwaywest"
  },
  {
    "displayName": "Switzerland West",
    "latitude": "46.204391",
    "longitude": "6.143158",
    "name": "switzerlandwest"
  },
  {
    "displayName": "UK West",
    "latitude": "53.427",
    "longitude": "-3.084",
    "name": "ukwest"
  },
  {
    "displayName": "UAE Central",
    "latitude": "24.466667",
    "longitude": "54.366669",
    "name": "uaecentral"
  },
  {
    "displayName": "Brazil Southeast",
    "latitude": "-22.90278",
    "longitude": "-43.2075",
    "name": "brazilsoutheast"
  }
]
